City ID,City,Country,Lat,Lng,Max Temp,Humidity,Cloudiness,Wind Speed,Current Description
0,San Vicente,AR,-26.6167,-54.1333,55.67,85,5,1.99,clear sky
1,Saint-Philippe,RE,-21.3585,55.7679,73.22,87,62,9.06,light rain
2,Punta Arenas,CL,-53.15,-70.9167,46.11,93,75,8.05,broken clouds
3,Taoudenni,ML,22.6783,-3.9836,76.91,22,3,9.4,clear sky
4,Bluff,NZ,-46.6,168.3333,60.8,67,11,5.39,few clouds
5,East London,ZA,-33.0153,27.9116,64.26,80,39,8.97,scattered clouds
6,Dingle,PH,10.9995,122.6711,80.78,78,72,10.87,broken clouds
7,Rikitea,PF,-23.1203,-134.9692,78.55,63,3,11.43,clear sky
8,Itoman,JP,26.1247,127.6694,70.57,67,75,1.14,broken clouds
9,Khatanga,RU,71.9667,102.5,5.9,96,97,12.37,overcast clouds
10,Kodiak,US,57.79,-152.4072,40.51,70,100,11.5,overcast clouds
11,Ixtapa,MX,20.7,-105.2,78.22,69,75,8.05,broken clouds
12,Caravelas,BR,-17.7125,-39.2481,78.03,62,100,10.83,overcast clouds
13,Mar Del Plata,AR,-38.0023,-57.5575,64.09,90,0,11.99,clear sky
14,Hay River,CA,60.8156,-115.7999,15.85,68,50,1.14,scattered clouds
15,Along,IN,28.1667,94.7667,62.71,94,98,1.72,overcast clouds
16,Nioro,GM,13.35,-15.75,78.69,44,8,8.46,clear sky
17,Pitimbu,BR,-7.4706,-34.8086,79.39,78,64,9.13,broken clouds
18,Carnarvon,AU,-24.8667,113.6333,66.27,82,94,12.66,overcast clouds
19,Rawson,AR,-43.3002,-65.1023,60.6,74,0,24.67,clear sky
20,Katsuura,JP,35.1333,140.3,62.87,68,90,11.41,overcast clouds
21,Hamilton,US,39.1834,-84.5333,49.32,49,0,12.66,clear sky
22,Busselton,AU,-33.65,115.3333,58.26,69,50,3.44,scattered clouds
23,Mogadishu,SO,2.0371,45.3438,82.36,82,100,12.37,overcast clouds
24,Upernavik,GL,72.7868,-56.1549,-2.56,89,100,13.13,overcast clouds
25,Piacabucu,BR,-10.4056,-36.4344,79.95,79,19,10.25,few clouds
26,Port Elizabeth,ZA,-33.918,25.5701,63.32,99,75,9.22,moderate rain
27,Barrow,US,71.2906,-156.7887,6.82,78,0,9.22,clear sky
28,Rodeo,US,38.033,-122.2669,70.52,52,0,9.22,clear sky
29,Cape Town,ZA,-33.9258,18.4232,62.35,80,66,13.0,broken clouds
30,Cidreira,BR,-30.1811,-50.2056,67.35,73,98,11.12,overcast clouds
31,Matata,NZ,-37.8833,176.75,69.58,68,100,10.74,overcast clouds
32,Grindavik,IS,63.8424,-22.4338,39.67,81,75,9.22,broken clouds
33,Goure,NE,13.9835,10.2704,79.66,35,99,6.55,overcast clouds
34,Kapaa,US,22.0752,-159.319,82.38,84,75,19.57,broken clouds
35,Ushuaia,AR,-54.8,-68.3,46.06,93,100,14.97,moderate rain
36,Licheng,CN,23.2955,113.8284,64.98,88,100,4.25,overcast clouds
37,Coquimbo,CL,-29.9533,-71.3436,59.23,82,9,1.81,clear sky
38,Georgetown,MY,5.4112,100.3354,82.33,89,40,0.0,scattered clouds
39,Kaitangata,NZ,-46.2817,169.8464,57.06,56,2,2.13,clear sky
40,Hofn,IS,64.2539,-15.2082,44.8,82,9,0.49,clear sky
41,Pangody,RU,65.85,74.4859,9.37,96,99,9.04,overcast clouds
42,Manokwari,ID,-0.8667,134.0833,82.9,68,93,2.98,overcast clouds
43,Pemba,MZ,-12.974,40.5178,77.2,87,7,13.49,clear sky
44,Avarua,CK,-21.2078,-159.775,80.65,74,75,3.44,broken clouds
45,Kati,ML,12.7441,-8.0726,83.55,31,41,2.93,scattered clouds
46,Mataura,NZ,-46.1927,168.8643,60.48,52,3,2.8,clear sky
47,Bredasdorp,ZA,-34.5322,20.0403,59.7,93,83,4.59,broken clouds
48,Otavi,NA,-19.65,17.3333,67.53,67,65,2.13,light rain
49,Ribeira Grande,PT,38.5167,-28.7,58.1,70,53,19.48,broken clouds
50,Ostrovnoy,RU,68.0531,39.5131,33.03,90,100,9.15,overcast clouds
51,Albany,US,42.6001,-73.9662,42.64,58,59,5.01,broken clouds
52,Gorontalo,ID,0.5412,123.0595,82.58,71,92,2.51,overcast clouds
53,Narsaq,GL,60.9167,-46.05,34.02,92,85,3.65,overcast clouds
54,Butaritari,KI,3.0707,172.7902,81.81,73,43,12.62,scattered clouds
55,Yulara,AU,-25.2406,130.9889,72.91,30,5,7.96,clear sky
56,Cherskiy,RU,68.75,161.3,13.75,83,100,4.61,overcast clouds
57,Laguna,US,38.421,-121.4238,74.95,24,0,10.36,clear sky
58,Vaini,TO,-21.2,-175.2,81.28,79,89,13.2,overcast clouds
59,Lompoc,US,34.6391,-120.4579,70.7,66,0,28.01,clear sky
60,Tasiilaq,GL,65.6145,-37.6368,33.19,97,100,9.44,light snow
61,Boa Vista,BR,2.8197,-60.6733,85.98,58,40,6.91,scattered clouds
62,Midland,US,31.9974,-102.0779,91.06,6,0,10.36,clear sky
63,New Norfolk,AU,-42.7826,147.0587,55.89,57,100,1.01,overcast clouds
64,Sorland,NO,67.667,12.6934,43.02,84,100,18.41,overcast clouds
65,Tiksi,RU,71.6872,128.8694,1.9,98,83,4.0,broken clouds
66,Khasan,RU,42.4308,130.6434,46.99,42,81,9.64,broken clouds
67,Gawler,AU,-34.6,138.7333,64.26,87,100,3.06,overcast clouds
68,Znamenskoye,RU,57.1281,73.8282,30.7,90,36,1.95,scattered clouds
69,Port Hardy,CA,50.6996,-127.4199,49.17,57,78,16.53,broken clouds
70,Lytkarino,RU,55.5814,37.9058,34.18,71,0,6.71,clear sky
71,Union De Reyes,CU,22.7953,-81.5375,77.18,69,22,9.78,few clouds
72,Umm Kaddadah,SD,13.6017,26.6876,84.78,16,24,9.73,few clouds
73,Neenah,US,44.1858,-88.4626,39.34,54,75,8.05,broken clouds
74,Airai,TL,-8.9266,125.4092,68.5,71,70,1.9,broken clouds
75,Port Alfred,ZA,-33.5906,26.891,60.19,94,16,3.0,few clouds
76,Drummondville,CA,45.8834,-72.4824,42.03,62,93,5.01,overcast clouds
77,Rincon,US,32.296,-81.2354,71.91,86,100,10.36,overcast clouds
78,Ahipara,NZ,-35.1667,173.1667,70.57,88,97,12.44,light rain
79,Terekli-Mekteb,RU,44.1671,45.8698,50.88,76,44,12.59,scattered clouds
80,Fortuna,US,40.5982,-124.1573,59.94,50,0,8.05,clear sky
81,Marzuq,YE,14.4,46.4667,72.28,42,3,4.38,clear sky
82,Constitucion,CL,-35.3333,-72.4167,51.66,93,58,6.67,broken clouds
83,Vila Velha,BR,-20.3297,-40.2925,75.15,81,75,11.5,broken clouds
84,Kruisfontein,ZA,-34.0033,24.7314,59.88,84,50,4.9,scattered clouds
85,Urucara,BR,-2.5364,-57.76,74.52,97,100,1.43,light rain
86,Coolum Beach,AU,-26.5333,153.1,77.34,71,69,8.14,broken clouds
87,Carson City,US,39.1638,-119.7674,68.83,12,0,11.5,clear sky
88,Gobabis,NA,-22.45,18.9667,64.33,68,63,7.02,broken clouds
89,Soavinandriana,MG,-19.1667,46.7333,56.97,92,43,5.3,scattered clouds
90,San Policarpo,PH,12.1791,125.5072,82.72,67,83,11.5,broken clouds
91,Hilo,US,19.7297,-155.09,77.29,88,100,3.44,light rain
92,Vardo,NO,70.3705,31.1107,39.76,92,100,11.03,overcast clouds
93,Wahpeton,US,46.2652,-96.6059,33.82,86,100,26.46,overcast clouds
94,Bethel,US,41.3712,-73.414,44.96,44,20,5.75,few clouds
95,Abu Samrah,SY,35.3029,37.1841,70.75,16,82,17.96,broken clouds
96,Labuhan,ID,-6.8844,112.2051,81.54,83,73,3.24,broken clouds
97,Chokurdakh,RU,70.6333,147.9167,10.83,91,78,4.45,broken clouds
98,Kungurtug,RU,50.5994,97.5228,34.63,73,30,2.08,scattered clouds
99,Cap Malheureux,MU,-19.9842,57.6142,75.47,91,11,3.0,few clouds
100,Acarau,BR,-2.8856,-40.12,78.28,86,90,6.91,overcast clouds
101,Saint-Augustin,CA,51.226,-58.6502,35.76,99,100,15.39,overcast clouds
102,Bubaque,GW,11.2833,-15.8333,75.16,76,3,16.91,clear sky
103,Hinton,CA,53.4001,-117.5857,35.2,69,100,4.0,light snow
104,Elko,US,41.0002,-115.5012,62.62,17,98,7.0,overcast clouds
105,Fereydun Kenar,IR,36.6864,52.5225,53.91,69,25,3.78,scattered clouds
106,Vestmannaeyjar,IS,63.4427,-20.2734,42.69,70,21,4.7,few clouds
107,Faya,SA,18.3851,42.4509,62.71,37,41,3.04,scattered clouds
108,Maarianhamina,AX,60.0973,19.9348,31.86,100,0,2.3,clear sky
109,Gweta,BW,-20.1833,25.2333,67.59,81,49,12.48,scattered clouds
110,Ballyshannon,IE,54.5,-8.1833,45.72,88,62,13.4,broken clouds
111,Nizwa,OM,22.9333,57.5333,79.74,30,1,3.24,clear sky
112,Saskylakh,RU,71.9167,114.0833,28.24,97,100,11.79,light snow
113,Isangel,VU,-19.55,169.2667,82.8,71,100,1.86,moderate rain
114,Yenotayevka,RU,47.2456,47.0281,53.65,69,100,8.72,overcast clouds
115,Tessalit,ML,20.1986,1.0114,72.77,23,0,9.44,clear sky
116,Hobart,AU,-42.8794,147.3294,56.26,86,75,1.01,broken clouds
117,Lewistown,US,40.5992,-77.5714,44.17,42,0,5.75,clear sky
118,Puerto Ayora,EC,-0.7393,-90.3518,74.41,95,93,9.37,light rain
119,Wellingborough,GB,52.3027,-0.6945,51.46,73,100,7.47,overcast clouds
120,Milkovo,RU,54.7167,158.6167,35.19,57,50,4.61,scattered clouds
121,Longyearbyen,SJ,78.2186,15.6401,21.04,86,75,12.66,broken clouds
122,Wenling,CN,28.3669,121.36,57.15,74,100,4.21,overcast clouds
123,Kandrian,PG,-6.2167,149.55,85.53,68,100,5.97,overcast clouds
124,Dikson,RU,73.5069,80.5464,-7.26,100,93,2.46,overcast clouds
125,Clyde River,CA,70.4692,-68.5914,-14.57,76,75,3.44,broken clouds
126,Paamiut,GL,61.994,-49.6678,25.84,84,97,1.12,overcast clouds
127,Nikolskoye,RU,59.7035,30.7861,39.7,74,100,3.27,overcast clouds
128,Tommot,RU,58.9564,126.2925,28.62,69,100,4.7,overcast clouds
129,Walvis Bay,NA,-22.9575,14.5053,63.84,68,5,5.86,clear sky
130,Pauini,BR,-7.7136,-66.9764,74.32,99,100,2.86,overcast clouds
131,Caarapo,BR,-22.6342,-54.8222,62.96,78,57,5.64,broken clouds
132,Antofagasta,CL,-23.65,-70.4,60.31,85,43,4.36,scattered clouds
133,Tuatapere,NZ,-46.1333,167.6833,59.49,61,10,3.18,clear sky
134,Cabo San Lucas,MX,22.8909,-109.9124,88.9,49,49,9.73,scattered clouds
135,Tammisaari,FI,59.9736,23.4339,34.9,89,69,5.37,broken clouds
136,Mao,ES,39.8885,4.2658,50.56,81,0,4.61,clear sky
137,Nishihara,JP,26.1842,127.7558,70.88,69,100,2.3,overcast clouds
138,Saint-Leu,RE,-21.15,55.2833,74.23,81,4,3.04,clear sky
139,Bengkulu,ID,-3.8004,102.2655,76.98,89,96,3.85,overcast clouds
140,Pisco,PE,-13.7,-76.2167,65.01,82,0,14.97,clear sky
141,Mentakab,MY,3.4865,102.3516,75.43,97,97,0.76,overcast clouds
142,Benemerito De Las Americas,MX,16.5167,-90.6439,82.38,57,13,0.67,few clouds
143,Makakilo City,US,21.3469,-158.0858,80.92,60,75,18.41,broken clouds
144,Kinsale,IE,51.7075,-8.5306,40.37,87,40,5.75,scattered clouds
145,Nuuk,GL,64.1835,-51.7216,23.88,85,100,4.0,overcast clouds
146,Nanortalik,GL,60.1432,-45.2371,29.41,89,58,9.44,broken clouds
147,Deputatskiy,RU,69.3,139.9,6.67,94,98,3.69,overcast clouds
148,Berbera,SO,10.4396,45.0143,81.18,80,10,0.47,clear sky
149,Parana,AR,-31.732,-60.5238,65.57,81,19,5.97,few clouds
150,Sobolevo,RU,54.4299,31.8996,31.64,95,99,11.45,snow
151,Thompson,CA,55.7435,-97.8558,32.16,29,75,0.0,broken clouds
152,Hami,CN,42.8,93.45,53.91,19,0,6.15,clear sky
153,Palmer,US,42.1584,-72.3287,43.41,54,20,6.91,few clouds
154,Rapid Valley,US,44.0625,-103.1463,45.32,37,0,35.68,clear sky
155,Dzaoudzi,YT,-12.7887,45.2699,78.69,89,0,4.61,clear sky
156,Olafsvik,IS,64.8945,-23.7142,41.97,69,97,9.8,overcast clouds
157,Atuona,PF,-9.8,-139.0333,79.65,78,8,17.07,clear sky
158,Tuktoyaktuk,CA,69.4541,-133.0374,15.49,83,99,8.61,overcast clouds
159,Talnakh,RU,69.4865,88.3972,4.21,96,100,4.56,light snow
160,Nara,JP,34.6851,135.8049,65.52,52,98,3.49,overcast clouds
161,Hualmay,PE,-11.0964,-77.6139,66.67,83,14,11.34,few clouds
162,Ilhabela,BR,-23.7781,-45.3581,69.76,73,93,0.65,overcast clouds
163,Sao Filipe,CV,14.8961,-24.4956,71.51,78,1,8.88,clear sky
164,Melfort,CA,52.8667,-104.6177,30.33,29,100,4.56,overcast clouds
165,Chuy,UY,-33.6971,-53.4616,62.26,78,100,6.87,overcast clouds
166,Bonthe,SL,7.5264,-12.505,78.37,80,100,6.02,overcast clouds
167,Esperance,AU,-33.8667,121.9,61.45,62,71,7.31,broken clouds
168,Sur,OM,22.5667,59.5289,86.04,42,1,9.48,clear sky
169,Sangar,RU,63.9242,127.4739,25.25,83,100,19.37,overcast clouds
170,Ilinskiy,RU,55.619,38.1182,34.3,69,0,0.0,clear sky
171,Kolyubakino,RU,55.668,36.5323,33.98,84,32,6.15,scattered clouds
172,Hermanus,ZA,-34.4187,19.2345,61.81,83,69,12.37,broken clouds
173,Lundazi,ZM,-12.2929,33.1782,63.34,95,78,6.4,broken clouds
174,Hithadhoo,MV,-0.6,73.0833,82.58,76,60,7.31,broken clouds
175,Hirara,JP,24.8,125.2833,75.47,69,40,9.22,scattered clouds
176,Mount Gambier,AU,-37.8333,140.7667,58.96,82,100,7.81,overcast clouds
177,Arraial Do Cabo,BR,-22.9661,-42.0278,73.47,67,1,11.07,clear sky
178,Maralal,KE,1.0968,36.698,61.95,79,100,1.23,overcast clouds
179,Champerico,GT,14.3,-91.9167,88.34,66,89,10.8,overcast clouds
180,Acapulco,MX,16.8634,-99.8901,82.22,69,0,9.22,clear sky
181,Ventspils,LV,57.3894,21.5606,28.33,93,0,3.44,clear sky
182,Anderson,US,34.5334,-82.6499,71.58,74,75,0.0,broken clouds
183,Leh,IN,34.1667,77.5833,34.92,45,27,2.82,scattered clouds
184,Qaanaaq,GL,77.484,-69.3632,-18.72,77,2,4.61,clear sky
185,Buraydah,SA,26.326,43.975,72.05,18,1,9.08,clear sky
186,Soure,BR,-0.7167,-48.5233,77.99,85,100,4.41,light rain
187,Barraute,CA,48.4335,-77.6328,30.47,83,88,5.23,overcast clouds
188,Gunnedah,AU,-30.9833,150.25,69.42,48,27,1.34,scattered clouds
189,San Carlos De Bariloche,AR,-41.1456,-71.3082,55.15,67,75,6.91,broken clouds
190,Jian,CN,27.1172,114.9793,53.56,95,100,2.3,overcast clouds
191,Jamestown,US,42.097,-79.2353,37.53,56,0,6.91,clear sky
192,Seoul,KR,37.5683,126.9778,56.77,44,100,5.75,overcast clouds
193,Vila Franca Do Campo,PT,37.7167,-25.4333,59.41,75,77,10.47,broken clouds
194,Faanui,PF,-16.4833,-151.75,80.96,72,44,9.22,light rain
195,Tshane,BW,-24.0196,21.8684,62.44,88,14,7.54,few clouds
196,Westport,US,41.1415,-73.3579,46.38,41,0,9.22,clear sky
197,Praia Da Vitoria,PT,38.7333,-27.0667,59.25,77,40,14.92,scattered clouds
198,Hasaki,JP,35.7333,140.8333,64.8,67,73,11.21,broken clouds
199,Karratha,AU,-20.7377,116.8463,83.84,36,13,22.59,few clouds
200,Rocha,UY,-34.4833,-54.3333,58.06,89,100,4.52,overcast clouds
201,Ust-Kulom,RU,61.6864,53.6902,25.68,93,85,4.05,overcast clouds
202,Sitka,US,57.0531,-135.33,46.29,57,75,9.22,broken clouds
203,Cervo,ES,43.6702,-7.4101,53.96,95,56,7.54,broken clouds
204,Lianran,CN,24.9227,102.485,43.34,80,61,2.53,broken clouds
205,Tual,ID,-5.6667,132.75,84.36,71,96,8.41,overcast clouds
206,Asau,RO,46.4333,26.4,34.72,82,81,4.92,broken clouds
207,Otradnoye,RU,59.7775,30.8181,39.87,74,100,3.38,overcast clouds
208,Samarai,PG,-10.6167,150.6667,82.56,78,100,10.58,overcast clouds
209,Maxixe,MZ,-23.8597,35.3472,71.62,94,97,3.44,light rain
210,Kingaroy,AU,-26.5333,151.8333,69.48,55,1,6.6,clear sky
211,Santa Fe,AR,-31.6333,-60.7,66.02,77,24,4.83,light rain
212,San Vito,CR,8.8208,-82.9709,66.85,97,100,1.32,overcast clouds
213,Kawalu,ID,-7.3817,108.2082,75.51,90,100,2.06,overcast clouds
214,Port-Cartier,CA,50.0334,-66.8654,41.22,71,100,15.61,overcast clouds
215,Valera,VE,9.3178,-70.6036,72.79,90,100,3.96,overcast clouds
216,Alghero,IT,40.5589,8.3181,42.89,75,0,3.44,clear sky
217,Lazaro Cardenas,MX,17.9583,-102.2,79.27,58,100,5.97,overcast clouds
218,Raga,SS,8.4596,25.678,79.27,52,20,4.47,few clouds
219,Matara,LK,5.9485,80.5353,79.39,84,98,5.99,overcast clouds
220,Paracuru,BR,-3.41,-39.0306,76.84,90,100,4.56,overcast clouds
221,Yellowknife,CA,62.456,-114.3525,19.92,53,20,9.22,few clouds
222,Akdepe,TM,42.0551,59.3788,53.69,52,100,11.05,overcast clouds
223,Carutapera,BR,-1.195,-46.02,76.37,91,98,3.11,overcast clouds
224,Talara,PE,-4.5772,-81.2719,67.01,84,17,17.29,few clouds
225,Guerrero Negro,MX,27.9769,-114.0611,65.05,65,85,19.04,overcast clouds
226,Manzhouli,CN,49.6,117.4333,46.99,52,99,16.44,overcast clouds
227,Torbay,CA,47.6666,-52.7314,54.37,94,100,24.16,overcast clouds
228,Portland,US,45.5234,-122.6762,59.74,47,100,10.36,overcast clouds
229,Kyzyl-Suu,KG,42.3414,78.0056,49.78,37,26,7.67,scattered clouds
230,Castro,BR,-24.7911,-50.0119,52.02,96,8,4.34,clear sky
231,Tianpeng,CN,30.9866,103.9393,54.07,78,100,2.86,light rain
232,Forestville,US,38.8451,-76.875,51.35,38,40,11.5,scattered clouds
233,Salinopolis,BR,-0.6136,-47.3561,78.08,86,100,3.06,moderate rain
234,Uruacu,BR,-14.5247,-49.1408,75.49,78,95,1.39,overcast clouds
235,Quatre Cocos,MU,-20.2078,57.7625,78.91,88,28,10.58,light rain
236,Bilibino,RU,68.0546,166.4372,22.14,83,98,0.92,overcast clouds
237,Cayenne,GF,4.9333,-52.3333,81.09,1,0,4.0,clear sky
238,Lucapa,AO,-8.4192,20.7447,65.57,97,71,3.18,broken clouds
239,Salalah,OM,17.0151,54.0924,82.49,83,75,3.44,broken clouds
240,Strenci,LV,57.6257,25.6854,33.73,65,86,0.87,overcast clouds
241,Cabedelo,BR,-6.9811,-34.8339,79.47,78,52,9.78,broken clouds
242,Manta,EC,-0.95,-80.7333,80.38,74,40,10.36,scattered clouds
243,Anupshahr,IN,28.3667,78.2667,81.73,13,1,2.91,clear sky
244,Ketchikan,US,55.3422,-131.6461,50.47,32,20,6.91,few clouds
245,Ahuimanu,US,21.4447,-157.8378,82.11,73,75,18.41,broken clouds
246,Padang,ID,-0.9492,100.3543,75.25,88,94,3.67,moderate rain
247,Drabiv,UA,49.963,32.1529,32.61,96,85,6.98,overcast clouds
248,Moundsville,US,39.9203,-80.7431,45.01,61,59,5.35,broken clouds
249,Nampula,MZ,-15.1165,39.2666,67.06,98,9,4.65,clear sky
250,Collecchio,IT,44.754,10.2184,46.13,50,51,5.14,broken clouds
251,Kaseda,JP,31.4167,130.3167,61.79,58,100,1.77,overcast clouds
252,Bath,GB,51.3779,-2.3591,53.58,89,88,7.31,overcast clouds
253,Sebinkarahisar,TR,40.2883,38.4236,49.75,52,100,6.85,overcast clouds
254,Amga,RU,60.8953,131.9608,32.61,67,30,8.79,scattered clouds
255,Mormugao,IN,15.4,73.8,79.25,74,7,4.88,clear sky
256,Codrington,AU,-38.2667,141.9667,60.28,74,100,11.45,light rain
257,Turukhansk,RU,65.8167,87.9833,2.53,96,98,7.2,overcast clouds
258,Muskogee,US,35.5834,-95.3336,55.62,82,100,12.66,overcast clouds
259,Keetmanshoop,NA,-26.5833,18.1333,69.3,50,0,11.52,clear sky
260,Willowmore,ZA,-33.2926,23.4895,53.51,79,2,3.33,clear sky
261,Ekhabi,RU,53.5102,142.9671,29.75,72,57,3.91,broken clouds
262,Provideniya,RU,64.3833,-173.3,32.36,93,100,25.01,snow
263,Ladario,BR,-19.0047,-57.6017,72.28,59,15,5.23,few clouds
264,Manggar,ID,-2.8833,108.2667,81.55,77,42,1.92,scattered clouds
265,Palmeiras De Goias,BR,-16.805,-49.9258,66.22,66,90,3.6,overcast clouds
266,Pali,IN,25.7667,73.3333,79.56,44,0,10.2,clear sky
267,Vostok,RU,46.4856,135.8833,36.36,55,37,8.79,scattered clouds
268,Tuensang,IN,26.2833,94.8333,61.72,88,40,1.12,scattered clouds
269,Leningradskiy,RU,69.3833,178.4167,17.65,88,86,4.36,overcast clouds
270,Mezen,RU,65.8522,44.24,31.78,98,100,8.93,light snow
271,Lagoa,PT,39.05,-27.9833,56.97,66,63,16.26,broken clouds
272,Chapais,CA,49.7834,-74.8492,24.58,84,100,9.69,overcast clouds
273,Kanye,BW,-24.9667,25.3327,57.51,94,100,3.31,light rain
274,Lebu,CL,-37.6167,-73.65,53.33,89,86,8.25,overcast clouds
275,Severo-Kurilsk,RU,50.6789,156.125,32.11,78,91,5.5,overcast clouds
276,Terra Rica,BR,-22.7094,-52.6169,62.92,77,6,3.89,clear sky
277,Srednekolymsk,RU,67.45,153.6833,18.46,85,99,6.69,overcast clouds
278,Khorixas,NA,-20.3667,14.9667,69.17,37,10,2.89,clear sky
279,Colwyn Bay,GB,53.2948,-3.7267,51.94,92,72,6.85,broken clouds
280,Meulaboh,ID,4.1363,96.1285,78.13,88,100,2.8,overcast clouds
281,Xining,CN,36.6167,101.7667,34.95,50,47,1.88,scattered clouds
282,Papa,HU,47.33,17.4674,35.31,69,0,4.61,clear sky
283,Montilla,ES,37.5863,-4.6381,59.2,56,100,3.22,overcast clouds
284,San Felipe,VE,10.3399,-68.7425,72.03,95,100,4.63,light rain
285,Bachaquero,VE,9.9694,-71.1494,79.5,80,100,2.08,overcast clouds
286,Sola,VU,-13.8833,167.55,81.91,72,61,4.56,broken clouds
287,North Platte,US,41.1239,-100.7654,60.69,29,100,19.57,overcast clouds
288,Gravdal,NO,68.1214,13.5031,42.42,84,100,15.93,light rain
289,Auki,SB,-8.7676,160.7034,84.16,69,70,3.4,broken clouds
290,Mahebourg,MU,-20.4081,57.7,79.09,89,75,1.14,broken clouds
291,Nandurbar,IN,21.3667,74.25,78.13,56,0,12.41,clear sky
292,Rawah,IQ,34.4816,41.9093,67.96,19,92,4.74,overcast clouds
293,Richards Bay,ZA,-28.783,32.0377,63.48,94,100,3.83,light rain
294,Balingasay,PH,16.3573,119.8564,82.89,67,72,12.64,broken clouds
295,Kholm,RU,59.2667,32.85,31.19,94,100,2.53,overcast clouds
296,Payson,US,40.0444,-111.7321,61.92,33,0,5.75,clear sky
297,Namibe,AO,-15.1961,12.1522,72.82,77,23,4.88,few clouds
298,Dunedin,NZ,-45.8742,170.5036,61.81,61,0,10.0,clear sky
299,Kinablangan,PH,7.6947,126.5503,81.84,76,89,4.81,overcast clouds
300,Te Anau,NZ,-45.4167,167.7167,60.22,57,24,3.8,few clouds
301,Namatanai,PG,-3.6667,152.4333,85.37,66,94,11.32,overcast clouds
302,Novyy Urengoy,RU,66.0833,76.6333,11.08,96,100,9.06,overcast clouds
303,Moron,AR,-34.6534,-58.6198,66.96,82,100,6.87,overcast clouds
304,Saint George,US,37.1041,-113.5841,85.62,10,0,11.5,clear sky
305,Oranjemund,NA,-28.55,16.4333,59.58,72,0,4.27,clear sky
306,Mossoro,BR,-5.1875,-37.3442,77.63,88,77,6.53,broken clouds
307,Aracoiaba,BR,-4.3711,-38.8142,74.14,95,73,2.75,broken clouds
308,Togur,RU,58.3631,82.8265,28.2,80,78,7.49,broken clouds
309,Siderno,IT,38.2779,16.302,50.34,90,100,1.99,overcast clouds
310,Lincoln,US,40.8,-96.667,47.01,67,0,12.66,clear sky
311,Onega,RU,63.9061,38.1404,31.93,99,100,2.42,overcast clouds
312,Ballina,AU,-28.8667,153.5667,73.02,84,70,5.48,broken clouds
313,Vestmanna,FO,62.1564,-7.1664,45.52,100,100,8.05,drizzle
314,Babol,IR,36.5513,52.679,50.4,73,22,2.55,few clouds
315,Aberdeen,GB,57.1437,-2.0981,46.89,92,86,8.05,overcast clouds
316,La Ronge,CA,55.1001,-105.2842,35.85,41,40,4.61,scattered clouds
317,Bagamoyo,TZ,-6.4333,38.9,73.45,96,59,7.02,broken clouds
318,Comodoro Rivadavia,AR,-45.8667,-67.5,62.46,48,0,4.61,clear sky
319,Kavaratti,IN,10.5669,72.642,82.96,72,52,3.31,broken clouds
320,Harper,LR,4.375,-7.7169,77.94,86,100,0.16,overcast clouds
321,Capao Da Canoa,BR,-29.7456,-50.0097,66.22,72,86,5.61,overcast clouds
322,Dilla,ET,6.41,38.31,62.11,94,100,0.67,moderate rain
323,Araouane,ML,18.9048,-3.5265,74.77,23,0,9.51,clear sky
324,Necochea,AR,-38.5473,-58.7368,61.27,78,76,9.22,broken clouds
325,Severobaykalsk,RU,55.65,109.3167,34.65,100,100,1.23,overcast clouds
326,Merrill,US,45.1805,-89.6835,39.97,51,100,9.22,overcast clouds
327,Morros,BR,-9.4467,-46.3003,73.78,80,92,1.34,overcast clouds
328,Charters Towers,AU,-20.1,146.2667,78.31,52,0,11.99,clear sky
329,Amazar,RU,53.858,120.875,33.62,58,100,3.24,overcast clouds
330,Havelock,US,34.8791,-76.9013,60.75,65,100,16.11,overcast clouds
331,Flinders,AU,-34.5833,150.8552,74.17,68,81,7.0,broken clouds
332,La Rioja,ES,42.25,-2.5,44.38,71,100,3.87,overcast clouds
333,Itamaraju,BR,-17.0392,-39.5311,69.75,92,99,2.82,overcast clouds
334,Byron Bay,AU,-28.65,153.6167,72.95,72,66,6.51,broken clouds
335,Nekhayevskiy,RU,50.4106,41.7561,51.98,78,100,4.65,overcast clouds
336,Waipawa,NZ,-41.4122,175.5153,59.18,63,74,13.67,broken clouds
337,Monroe,US,43.1501,-77.6831,42.96,46,0,6.91,clear sky
338,Sipe Sipe,BO,-17.45,-66.3833,59.49,71,5,0.27,clear sky
339,Joao Camara,BR,-5.5375,-35.8197,74.25,92,81,5.21,broken clouds
340,Kumo,NG,10.0447,11.2122,83.43,54,99,10.74,overcast clouds
341,Kahului,US,20.8947,-156.47,84.22,65,20,25.32,few clouds
342,Mbanza-Ngungu,CD,-5.25,14.8667,69.66,94,100,1.3,light rain
343,Port Blair,IN,11.6667,92.75,77.04,94,40,1.14,mist
344,Nawabganj,BD,24.5911,88.271,77.85,91,0,7.65,clear sky
345,Susaki,JP,33.3667,133.2833,64.47,58,100,2.1,overcast clouds
346,Teya,RU,60.3778,92.6267,25.84,91,99,8.12,overcast clouds
347,Sahbuz,AZ,39.4072,45.5739,44.2,56,73,3.51,broken clouds
348,Tarana,IN,23.3333,76.0333,80.11,28,0,11.56,clear sky
349,Russkaya Polyana,UA,49.417,31.9201,33.58,91,88,7.0,overcast clouds
350,Baoshan,CN,46.5586,131.4244,45.46,31,2,10.51,clear sky
351,Huarmey,PE,-10.0681,-78.1522,67.46,84,2,11.77,clear sky
352,Klaksvik,FO,62.2266,-6.589,47.32,97,100,11.79,light rain
353,Saint-Ambroise,CA,48.5501,-71.3324,36.14,76,89,12.28,overcast clouds
354,Pevek,RU,69.7008,170.3133,9.52,85,34,1.68,scattered clouds
355,Baoding,CN,38.8511,115.4903,59.2,39,100,3.18,overcast clouds
356,Strezhevoy,RU,60.7333,77.5889,13.75,99,62,3.85,broken clouds
357,Kuching,MY,1.55,110.3333,79.02,94,20,1.01,few clouds
358,Saldanha,ZA,-33.0117,17.9442,55.45,80,34,9.4,scattered clouds
359,Vieux-Habitants,GP,16.0589,-61.7659,77.72,65,100,14.16,overcast clouds
360,Gwadar,PK,25.1216,62.3254,80.28,84,0,9.98,clear sky
361,Satuba,BR,-9.5633,-35.8244,77.81,88,20,4.61,few clouds
362,Xocali,AZ,39.913,46.7903,49.73,70,3,2.95,clear sky
363,Pacific Grove,US,36.6177,-121.9166,67.39,71,0,11.5,clear sky
364,Emba,KZ,48.8264,58.1442,50.2,65,27,3.58,scattered clouds
365,Kentau,KZ,43.5206,68.5094,67.08,38,88,2.73,overcast clouds
366,Amiens,FR,49.9,2.3,52.05,76,90,7.31,overcast clouds
367,Baykit,RU,61.67,96.37,25.2,83,99,11.56,overcast clouds
368,Kropotkin,RU,45.4375,40.5756,53.24,74,96,7.52,overcast clouds
369,Alta Floresta,BR,-9.8756,-56.0861,72.32,97,94,2.37,overcast clouds
370,Zhigansk,RU,66.7697,123.3711,28.58,79,100,29.26,overcast clouds
371,Ko Samui,TH,9.5357,99.9357,84.11,84,40,3.44,scattered clouds
372,Nyuksenitsa,RU,60.4128,44.2397,29.3,96,98,3.89,overcast clouds
373,Terney,RU,45.0503,136.6092,45.37,45,100,5.14,overcast clouds
374,Massena,US,44.9281,-74.8919,43.05,49,0,6.91,clear sky
375,Yining,CN,29.0361,114.5636,52.21,92,100,1.63,overcast clouds
376,Tifton,US,31.4505,-83.5085,71.56,99,100,5.06,overcast clouds
377,Aykhal,RU,66.0,111.5,23.22,94,100,20.51,light snow
378,Chauk,MM,20.8833,94.8167,82.62,64,44,6.85,scattered clouds
379,Luau,AO,-10.7073,22.2247,63.59,97,100,3.83,overcast clouds
380,Jardim,BR,-21.4803,-56.1381,67.53,63,91,3.06,overcast clouds
381,Oistins,BB,13.0667,-59.5333,78.89,73,75,18.41,broken clouds
382,Inhambane,MZ,-23.865,35.3833,72.39,92,96,3.98,light rain
383,Yuzhnyy,RU,53.2542,83.6936,50.38,50,100,11.18,overcast clouds
384,Korla,CN,41.7597,86.1469,54.28,17,1,7.94,clear sky
385,Marawi,PH,7.9986,124.2928,73.99,85,90,2.01,overcast clouds
386,Tazovskiy,RU,67.4667,78.7,6.98,97,97,9.78,overcast clouds
387,Potsdam,DE,52.3989,13.0657,44.19,75,28,4.21,scattered clouds
388,Saryozek,KZ,44.3583,77.9753,56.57,21,82,6.6,broken clouds
389,Saint Anthony,US,45.0205,-93.218,36.1,91,100,6.91,snow
390,Mata,PT,40.683,-7.4592,54.61,82,32,1.12,scattered clouds
391,Brae,GB,60.3964,-1.353,46.31,79,98,19.75,overcast clouds
392,Wajima,JP,37.4,136.9,59.68,44,75,4.61,broken clouds
393,Ostersund,SE,63.1792,14.6357,39.65,60,97,8.05,overcast clouds
394,Poya,NC,-21.35,165.15,80.87,62,48,3.36,scattered clouds
395,Lorengau,PG,-2.0226,147.2712,83.37,78,56,7.09,broken clouds
396,Henties Bay,NA,-22.116,14.2845,61.7,78,6,5.01,clear sky
397,Solnechnyy,RU,50.7214,136.6319,31.82,82,97,1.59,overcast clouds
398,Tiznit,MA,29.5833,-9.5,72.86,23,100,1.34,overcast clouds
399,Batagay,RU,67.6333,134.6333,17.29,82,44,6.11,scattered clouds
400,Petranka,UA,48.9025,24.3035,29.01,86,55,4.47,broken clouds
401,Novaya Lyalya,RU,59.055,60.599,19.8,95,7,1.72,clear sky
402,Iqaluit,CA,63.7506,-68.5145,-6.07,71,40,5.75,scattered clouds
403,Haimen,CN,23.1935,116.6142,66.09,76,97,9.93,overcast clouds
404,Chalmette,US,29.9427,-89.9634,82.45,68,0,19.57,clear sky
405,Mayo,US,38.8876,-76.5119,52.12,43,0,8.99,clear sky
406,Hauterive,FR,46.0901,3.4459,45.36,81,73,1.32,broken clouds
407,Rancho Palos Verdes,US,33.7445,-118.387,76.08,76,0,14.97,clear sky
408,Awbari,LY,26.5921,12.7805,63.03,35,41,7.85,scattered clouds
409,Arlit,NE,18.7369,7.3853,75.65,14,93,6.91,overcast clouds
410,Aksarayskiy,RU,46.7924,48.0119,52.16,68,98,7.14,overcast clouds
411,Dawei,MM,14.0833,98.2,77.47,87,16,2.17,few clouds
412,El Molino,CO,10.6523,-72.924,79.21,86,100,2.77,overcast clouds
413,Kloulklubed,PW,7.0419,134.2556,82.9,74,95,2.75,overcast clouds
414,Husavik,IS,66.0449,-17.3389,39.04,98,100,5.23,light rain
415,Nata,PA,8.3333,-80.5167,81.5,74,100,4.36,overcast clouds
416,Sampit,ID,-2.5333,112.95,78.75,82,99,2.24,overcast clouds
417,Puerto Del Rosario,ES,28.5004,-13.8627,69.55,73,0,9.22,clear sky
418,Panguna,PG,-6.3164,155.4848,77.72,77,68,3.31,light rain
419,Bambous Virieux,MU,-20.3428,57.7575,79.05,89,75,1.14,light rain
420,Komsomolskiy,UZ,40.4272,71.7189,63.32,42,59,6.91,broken clouds
421,Lethem,GY,3.3803,-59.7968,84.2,52,35,11.88,scattered clouds
422,Upata,VE,8.0086,-62.3989,75.92,73,28,8.72,scattered clouds
423,Paita,PE,-5.0892,-81.1144,68.86,77,15,16.62,few clouds
424,Fairbanks,US,64.8378,-147.7164,41.0,25,0,5.75,clear sky
425,Roma,US,43.2128,-75.4557,39.96,58,0,8.05,clear sky
426,Ulundi,ZA,-28.3352,31.4162,58.75,98,100,2.17,light rain
427,Lalmohan,BD,22.3384,90.7419,81.46,83,71,9.91,broken clouds
428,Nowy Dwor Gdanski,PL,54.2131,19.1177,32.2,81,29,4.05,scattered clouds
429,Novyy Rogachik,RU,48.6768,44.0608,54.5,58,100,8.88,overcast clouds
430,Osypenko,UA,46.9136,36.8253,51.04,68,100,8.88,overcast clouds
431,Juigalpa,NI,12.1063,-85.3645,87.24,46,93,8.03,overcast clouds
432,Casablanca,MA,33.5928,-7.6192,68.32,72,97,8.99,overcast clouds
433,Cockburn Town,TC,21.4612,-71.1419,78.76,73,75,9.22,broken clouds
434,Garissa,KE,-0.4536,39.6401,80.22,76,100,14.36,overcast clouds
435,Eureka,US,40.8021,-124.1637,62.74,51,99,10.87,overcast clouds
436,Mwaya,TZ,-9.55,33.95,71.89,89,76,2.1,light rain
437,Waddan,LY,29.1614,16.139,59.67,63,11,3.58,few clouds
438,Kragujevac,RS,44.0167,20.9167,41.29,92,100,1.74,overcast clouds
439,Geraldton,AU,-28.7667,114.6,59.41,63,0,10.36,clear sky
440,Morondava,MG,-20.2833,44.2833,80.62,80,0,5.93,clear sky
441,Urlati,RO,44.9833,26.2333,40.59,58,100,5.01,overcast clouds
442,Mecca,SA,21.4267,39.8261,81.27,34,11,3.27,few clouds
443,Port-Gentil,GA,-0.7193,8.7815,81.03,82,100,8.16,light rain
444,Kiunga,PG,-6.1219,141.2906,77.16,92,100,1.39,overcast clouds
445,High Level,CA,58.5169,-117.136,17.71,73,100,10.36,light snow
446,Bijar,IR,35.8668,47.6051,40.01,52,9,2.42,clear sky
447,Sweetwater,US,25.7634,-80.3731,80.01,79,20,13.8,few clouds
448,Bloomfield,US,40.8068,-74.1854,46.9,38,20,10.36,few clouds
449,Chumikan,RU,54.7183,135.315,29.19,83,35,10.07,scattered clouds
450,Haines Junction,CA,60.7522,-137.5108,33.75,32,83,5.75,broken clouds
451,Shimoda,JP,34.6667,138.95,59.36,83,100,7.36,overcast clouds
452,Helena,US,46.5927,-112.0361,43.79,29,0,18.41,clear sky
453,Natal,BR,-5.795,-35.2094,80.82,89,20,6.91,few clouds
454,Etchoropo,MX,26.7667,-109.6667,84.96,30,96,23.73,overcast clouds
455,Nome,US,64.5011,-165.4064,31.15,80,100,16.11,overcast clouds
456,San Andres,CO,12.5847,-81.7006,82.42,74,20,6.91,few clouds
457,Santiago Del Estero,AR,-27.7951,-64.2615,65.77,55,0,3.6,clear sky
458,Bela,IN,25.9333,81.9833,81.97,11,0,7.45,clear sky
459,Villamaria,CO,5.0449,-75.5146,61.27,96,99,2.68,overcast clouds
460,Half Moon Bay,US,37.4636,-122.4286,65.91,60,0,20.71,clear sky
461,Fria,GN,10.4167,-13.5833,72.21,78,89,4.36,overcast clouds
462,Bud,US,39.447,-86.1758,48.88,47,100,11.05,overcast clouds
463,Anadyr,RU,64.75,177.4833,32.5,86,75,24.61,light shower snow
464,Puerto Escondido,MX,15.85,-97.0667,85.03,74,0,5.75,clear sky
465,Touros,BR,-5.1989,-35.4608,80.29,78,87,8.7,overcast clouds
466,Egvekinot,RU,66.3167,-179.1667,25.41,95,100,12.64,snow
467,Turbat,PK,26.0023,63.044,80.78,49,0,1.86,clear sky
468,San Patricio,US,28.017,-97.5169,84.29,65,38,13.49,scattered clouds
469,Chagoda,RU,59.164,35.3285,28.6,97,100,2.15,overcast clouds
470,Hobyo,SO,5.3505,48.5268,82.67,78,57,16.84,broken clouds
471,Vila,PT,42.0304,-8.1588,46.71,77,1,5.39,clear sky
472,Varhaug,NO,58.6147,5.6457,44.85,76,66,11.59,broken clouds
473,Soyo,AO,-6.1349,12.3689,78.33,93,91,6.51,overcast clouds
474,Japura,ID,-0.3167,102.35,74.5,99,100,1.14,overcast clouds
475,Rio Gallegos,AR,-51.6226,-69.2181,46.45,87,100,13.8,moderate rain
476,Tilichiki,RU,60.4667,166.1,23.38,80,36,6.58,scattered clouds
477,Ciudad Bolivar,VE,8.1222,-63.5497,87.28,47,71,15.61,broken clouds
478,Bom Jesus,BR,-9.0744,-44.3586,73.42,91,71,0.81,broken clouds
479,Alugan,PH,12.2188,125.4808,82.29,68,84,10.83,broken clouds
480,Berlevag,NO,70.8578,29.0864,42.6,94,100,16.51,overcast clouds
481,Iskateley,RU,67.6803,53.1512,32.49,98,100,9.08,overcast clouds
482,Ajdabiya,LY,30.7554,20.2263,60.62,83,20,14.56,few clouds
483,Kalamare,BW,-22.9337,26.5703,60.26,92,100,9.06,overcast clouds
484,Mersing,MY,2.4312,103.8405,75.11,94,40,4.61,scattered clouds
485,Ilulissat,GL,69.2167,-51.1,14.02,73,40,5.75,scattered clouds
486,Flagstaff,US,35.1981,-111.6513,74.1,10,0,13.8,clear sky
487,College,US,64.8569,-147.8028,40.98,25,0,5.75,clear sky
488,Ulaangom,MN,49.9811,92.0667,42.26,33,3,2.35,clear sky
489,Straumen,NO,63.8709,11.2999,37.4,91,74,2.01,broken clouds
490,Concordia,AR,-31.393,-58.0209,64.78,65,86,3.0,overcast clouds
491,Gaogou,CN,34.0175,119.1886,58.68,58,100,7.58,overcast clouds
492,Baruun-Urt,MN,46.6806,113.2792,45.84,32,24,12.84,few clouds
493,Epe,NG,6.5841,3.9834,76.77,91,100,3.85,moderate rain
494,Vanimo,PG,-2.6741,141.3028,82.74,79,76,2.86,broken clouds
495,Kilakarai,IN,9.2333,78.7833,82.87,73,13,7.76,few clouds
496,Mayor Pablo Lagerenza,PY,-19.9309,-60.7718,67.05,47,70,3.94,broken clouds
497,Kunya,NG,12.2233,8.5325,81.54,59,100,12.73,overcast clouds
498,Ponta Delgada,PT,37.7333,-25.6667,59.72,72,20,12.66,few clouds
499,Mayumba,GA,-3.432,10.6554,77.11,92,100,4.5,overcast clouds
500,Chenghai,CN,23.4632,116.768,66.11,88,75,4.47,broken clouds
501,Portales,US,34.1862,-103.3344,83.39,7,0,1.01,clear sky
502,Aklavik,CA,68.2191,-135.0107,21.07,77,95,13.44,overcast clouds
503,Azusa,US,34.1336,-117.9076,83.03,47,0,10.36,clear sky
504,Langsa,ID,4.4683,97.9683,74.75,94,100,2.98,overcast clouds
505,Grand Gaube,MU,-20.0064,57.6608,79.2,91,11,3.0,few clouds
506,Seabra,BR,-12.4186,-41.7703,65.21,97,100,2.98,overcast clouds
507,Plainview,US,40.7765,-73.4673,46.74,43,0,13.8,clear sky
508,Sao Felix Do Xingu,BR,-6.6447,-51.995,72.88,98,96,0.67,overcast clouds
509,Arman,RU,59.7,150.1667,26.98,69,100,1.23,overcast clouds
510,Premnitz,DE,52.5333,12.3333,43.09,75,12,5.03,few clouds
511,Clemencia,CO,10.5665,-75.325,83.57,81,95,6.71,overcast clouds
512,San Juan,AR,-31.5375,-68.5364,68.59,35,1,6.71,clear sky
513,Radford,US,37.1318,-80.5764,59.92,36,40,6.91,scattered clouds
514,Kirovskiy,RU,45.0917,133.5136,45.16,39,46,6.62,scattered clouds
515,Uthal,PK,25.8072,66.6219,78.62,91,4,3.78,clear sky
516,Vao,NC,-22.6667,167.4833,76.98,71,32,5.37,scattered clouds
517,Mahenge,TZ,-8.6833,36.7167,62.11,97,69,2.33,light rain
518,Bloemhof,ZA,-27.6469,25.607,53.89,95,55,4.54,light rain
519,San Bartolome De Tirajana,ES,27.9248,-15.5733,68.47,31,62,9.22,broken clouds
520,Borshchiv,UA,48.8033,26.0435,31.98,73,16,3.83,few clouds
521,Espoo,FI,60.25,24.6667,39.07,82,0,4.61,clear sky
522,Pryshyb,UA,47.2603,35.3228,43.95,88,100,11.54,light rain
523,Kudahuvadhoo,MV,2.6708,72.8944,83.86,65,82,10.8,broken clouds
524,Hambantota,LK,6.1241,81.1185,73.74,100,20,0.0,few clouds
525,Rovinj,HR,45.08,13.64,51.62,48,22,17.74,few clouds
526,Barcelos,PT,41.5388,-8.6151,60.91,89,2,6.33,clear sky
527,Mae Sai,TH,20.4335,99.8762,72.81,86,44,0.87,scattered clouds
528,Ola,RU,59.5833,151.2833,25.61,66,100,2.33,overcast clouds
529,Altamont,US,42.2068,-121.7372,55.89,28,20,4.61,few clouds
530,Yvetot,FR,49.6174,0.7581,53.6,86,85,5.7,overcast clouds
531,Jalu,LY,29.0331,21.5482,61.95,72,98,15.32,overcast clouds
532,Lloydminster,CA,53.2835,-110.0016,34.02,51,75,3.44,broken clouds
533,Cam Ranh,VN,11.9214,109.1591,78.76,73,20,6.91,few clouds
534,Almaty,KZ,43.25,76.95,46.31,61,40,4.47,scattered clouds
535,Yerbogachen,RU,61.2767,108.0108,35.06,75,91,14.18,overcast clouds
536,Kvareli,GE,41.9524,45.8151,50.88,60,30,5.79,scattered clouds
537,Lavrentiya,RU,65.5833,-171.0,31.05,97,100,14.67,snow
538,Naqadeh,IR,36.9553,45.388,47.08,55,18,2.08,few clouds
539,Port Lincoln,AU,-34.7333,135.8667,62.83,65,100,10.07,overcast clouds
540,Beringovskiy,RU,63.05,179.3167,31.28,99,100,8.93,light snow
541,Steamboat Springs,US,40.485,-106.8317,47.79,81,100,8.05,overcast clouds
542,Ponta Do Sol,PT,32.6667,-17.1,66.83,54,93,12.21,overcast clouds
543,Souillac,MU,-20.5167,57.5167,79.18,89,75,1.14,light rain
544,Letterkenny,IE,54.95,-7.7333,44.08,93,70,8.23,broken clouds
545,Vegreville,CA,53.5001,-112.0518,37.45,38,95,6.91,overcast clouds
546,Beloha,MG,-25.1667,45.05,72.79,90,100,10.54,overcast clouds
547,Koumac,NC,-20.5667,164.2833,77.4,70,100,1.48,overcast clouds
548,Ortona,IT,42.3496,14.4039,52.16,59,91,21.83,overcast clouds
549,Kutum,SD,14.2,24.6667,79.57,14,31,2.1,scattered clouds
550,Keningau,MY,5.3378,116.1602,81.09,74,77,2.89,broken clouds
551,Vysokogornyy,RU,50.1167,139.15,28.87,80,99,3.38,overcast clouds
552,Norman Wells,CA,65.282,-126.8329,26.64,28,20,6.91,few clouds
553,Haysyn,UA,48.8114,29.3898,30.83,90,93,8.46,overcast clouds
554,Marsh Harbour,BS,26.5412,-77.0636,76.37,80,58,12.39,broken clouds
555,Salinas,US,36.6777,-121.6555,70.99,60,0,12.66,clear sky
556,Aksu,CN,41.1231,80.2644,55.92,17,3,5.19,clear sky
557,Ancud,CL,-41.8697,-73.8203,55.22,88,77,5.88,broken clouds
558,Bukachacha,RU,52.9833,116.9167,50.7,55,100,10.42,overcast clouds
559,Pingliang,CN,35.5392,106.6861,46.8,41,0,16.06,clear sky
560,General Roca,AR,-39.0333,-67.5833,64.62,43,100,10.65,overcast clouds
561,Noboribetsu,JP,42.4514,141.1731,47.64,79,100,5.5,overcast clouds
562,Mount Darwin,ZW,-16.7725,31.5838,62.04,95,0,1.99,clear sky
563,Prince Rupert,CA,54.3161,-130.3201,50.09,43,0,8.05,clear sky
564,Jining,CN,35.405,116.5814,62.47,46,16,10.2,few clouds
565,Lima,PE,-12.0432,-77.0282,64.38,33,20,4.61,few clouds
566,Teonthar,IN,24.9833,81.65,86.95,12,7,4.52,clear sky
567,Mareeba,AU,-17.0,145.4333,79.66,73,61,6.02,broken clouds
568,Boguchar,RU,49.9358,40.545,51.75,72,100,5.28,overcast clouds
569,Chimbote,PE,-9.0853,-78.5783,65.75,88,13,9.57,few clouds
570,Sept-Iles,CA,50.2001,-66.3821,41.52,68,75,11.5,broken clouds
571,Tori,EE,58.4825,24.8152,30.11,71,94,3.31,overcast clouds
572,Ouadda,CF,8.0777,22.4007,69.26,91,100,1.59,light rain
573,Victoria,HK,22.2855,114.1577,71.96,79,100,4.0,overcast clouds
574,Malaut,IN,30.2167,74.4833,79.57,17,5,6.62,clear sky
575,Wahiawa,US,21.5028,-158.0236,79.12,69,100,6.91,overcast clouds
576,Yeppoon,AU,-23.1333,150.7333,78.58,63,16,11.99,few clouds
577,Maniitsoq,GL,65.4167,-52.9,22.77,84,100,1.79,overcast clouds
578,Saint-Georges,GD,12.0564,-61.7485,78.48,83,20,17.27,few clouds
579,Weinan,CN,34.5036,109.5089,60.46,30,12,14.61,few clouds
580,Saravena,CO,6.9538,-71.8752,71.29,96,98,1.28,overcast clouds
581,Russell,US,32.3502,-85.1999,66.11,93,20,0.0,few clouds
582,Saiki,JP,32.95,131.9,63.39,46,100,3.22,overcast clouds
583,Marfino,RU,55.7028,37.3822,34.05,50,0,6.71,clear sky
584,Killybegs,IE,54.6333,-8.45,45.91,82,47,14.63,scattered clouds
585,Banjar,ID,-8.19,114.9675,83.59,80,100,2.89,overcast clouds
586,Kavieng,PG,-2.5744,150.7967,85.71,65,30,14.0,scattered clouds
587,Chiang Khong,TH,20.2613,100.4046,75.87,83,26,2.13,scattered clouds
588,Broome,US,42.2506,-75.833,37.89,57,0,6.91,clear sky
589,Guanica,PR,17.9716,-66.908,80.51,75,100,15.08,overcast clouds
590,Casambalangan,PH,18.3765,122.1274,78.33,78,100,8.12,overcast clouds
591,Hailar,CN,49.2,119.7,49.51,34,96,16.26,overcast clouds
592,Kununurra,AU,-15.7667,128.7333,85.98,74,0,5.75,clear sky
593,Vieques,PR,18.425,-65.8329,79.11,73,20,12.66,smoke
594,Pundaguitan,PH,6.3711,126.1689,82.15,73,91,6.4,overcast clouds
595,Kirakira,SB,-10.4544,161.9205,85.03,68,91,8.25,overcast clouds
596,Yazman,PK,29.1212,71.7446,83.07,28,25,4.85,scattered clouds
597,Cururupu,BR,-1.8283,-44.8683,75.06,95,100,0.92,overcast clouds
598,Savannakhet,LA,16.566,104.751,77.43,69,100,13.35,overcast clouds
599,Salto,UY,-31.3833,-57.9667,64.87,65,90,3.0,overcast clouds
600,Riyadh,SA,24.6877,46.7219,68.14,22,0,3.87,clear sky
601,Coruripe,BR,-10.1256,-36.1756,79.81,78,16,10.56,light rain
602,Las Tunas,CU,20.9617,-76.9511,73.67,79,71,9.33,moderate rain
603,Verkhoyansk,RU,67.5447,133.385,19.27,76,71,3.62,broken clouds
604,Naze,JP,28.3667,129.4833,70.72,58,32,7.81,scattered clouds
605,Kenora,CA,49.8167,-94.4337,29.37,80,100,8.05,overcast clouds
606,Birao,CF,10.2849,22.7882,81.7,53,100,5.59,overcast clouds
607,Alofi,NU,-19.0595,-169.9187,85.89,70,100,9.22,overcast clouds
608,Ambon,ID,-3.6954,128.1814,84.34,79,40,4.61,scattered clouds
609,Metu,ET,8.3,35.5833,56.91,96,84,2.98,broken clouds
610,Kurikka,FI,62.6167,22.4167,32.86,92,100,3.8,overcast clouds
611,Virginia Beach,US,36.8529,-75.978,55.02,71,40,12.66,scattered clouds
612,Avera,US,33.194,-82.5271,71.65,71,100,3.24,overcast clouds
613,Shelburne,CA,44.0787,-80.2041,36.39,68,15,4.52,few clouds
614,Muisne,EC,0.6,-80.0333,75.07,85,85,6.6,overcast clouds
615,Raudeberg,NO,61.9875,5.1352,47.86,74,100,8.39,overcast clouds
616,Lata,PT,40.1629,-8.3327,58.82,98,40,1.39,scattered clouds
617,Luyang,CN,27.6239,110.0989,51.19,91,100,0.83,overcast clouds
618,Farafangana,MG,-22.8167,47.8333,72.32,91,90,4.05,overcast clouds
619,Bulgan,MN,48.8125,103.5347,46.65,40,15,5.23,few clouds
620,Lepe,ES,37.2548,-7.2043,66.11,69,90,12.1,overcast clouds
621,Ugoofaaru,MV,5.6667,73.0,83.91,74,99,9.22,overcast clouds
622,Morant Bay,JM,17.8815,-76.4093,80.22,82,7,6.17,clear sky
623,Akyab,MM,20.15,92.9,82.4,79,77,3.67,broken clouds
624,Rudbar,AF,30.15,62.6,67.71,47,6,13.87,clear sky
625,Yushan,CN,31.3776,120.9543,59.99,66,100,2.57,overcast clouds
626,Bahia Blanca,AR,-38.7196,-62.2724,61.36,65,9,7.87,clear sky
627,Alice Springs,AU,-23.7,133.8833,78.35,38,2,11.5,clear sky
628,Nelson Bay,AU,-32.7167,152.15,74.08,73,9,4.16,clear sky
629,Chiknayakanhalli,IN,13.4172,76.6228,72.9,71,4,3.89,clear sky
630,Loandjili,CG,-4.7561,11.8578,78.91,94,20,3.44,few clouds
631,Boca Do Acre,BR,-8.7522,-67.3978,73.02,97,69,2.89,broken clouds
632,Vzmorye,RU,54.6961,20.2361,39.0,75,26,5.23,scattered clouds
633,Knysna,ZA,-34.0363,23.0471,58.77,79,90,2.86,overcast clouds
634,Zeerust,ZA,-25.5369,26.0751,56.64,98,100,1.79,overcast clouds
635,Tateyama,JP,34.9833,139.8667,65.1,70,100,11.59,overcast clouds
636,Totma,RU,59.9747,42.7642,29.61,95,100,3.4,overcast clouds
637,Bella Vista,US,36.4295,-94.2316,52.7,77,100,5.75,overcast clouds
638,Chilliwack,CA,49.1747,-121.9443,59.31,36,100,3.44,overcast clouds
639,Kushima,JP,31.4583,131.2333,66.9,52,100,2.73,overcast clouds
640,Tahe,CN,52.3333,124.7333,35.58,68,100,7.7,overcast clouds
641,Nichinan,JP,31.6,131.3667,62.28,54,99,1.7,overcast clouds
642,Luderitz,NA,-26.6481,15.1594,68.27,47,0,10.2,clear sky
643,Grajau,BR,-5.8194,-46.1386,74.71,94,100,0.89,overcast clouds
644,Alvdal,NO,62.1077,10.6307,32.56,84,96,1.43,overcast clouds
645,Providencia,MX,28.7167,-111.5833,90.41,23,31,15.9,scattered clouds
646,Rach Gia,VN,10.0167,105.0833,83.03,74,100,11.88,overcast clouds
647,Freeport,US,40.6576,-73.5832,47.25,41,0,17.27,clear sky
648,Telford,GB,52.6766,-2.4493,50.72,87,75,12.66,light rain
649,Javanrud,IR,34.7961,46.5172,45.63,48,0,4.34,clear sky
650,Tacoronte,ES,28.4769,-16.4102,72.16,37,40,13.0,haze
651,Constantine,DZ,36.365,6.6147,45.81,81,0,5.75,clear sky
652,Lozuvatka,UA,48.0571,33.2858,39.85,77,100,10.27,light rain
653,Floro,NO,61.5996,5.0328,48.96,76,20,3.44,few clouds
654,Jackson,US,42.4165,-122.8345,62.74,47,0,4.61,clear sky
655,Sao Joao Da Barra,BR,-21.6403,-41.0511,69.51,77,0,10.96,clear sky
656,Sitrah,BH,26.1547,50.6206,77.0,35,0,8.05,clear sky
657,Chateau-Gontier,FR,47.8333,-0.7,51.94,93,0,8.7,clear sky
658,Wanaka,NZ,-44.7,169.15,58.1,61,0,1.99,clear sky
659,Doha,QA,25.2867,51.5333,78.78,24,0,10.36,clear sky
660,Evensk,RU,61.95,159.2333,30.54,81,100,2.01,overcast clouds
661,Valparaiso,CL,-33.0393,-71.6273,56.48,78,100,2.3,mist
662,Singarayakonda,IN,15.25,80.0333,81.46,85,11,4.0,few clouds
663,Port Antonio,JM,18.18,-76.4612,80.51,81,37,7.45,scattered clouds
664,Saint-Paul,RE,-21.0096,55.2707,75.29,83,4,2.46,clear sky
665,Tapa,EE,59.2606,25.9586,33.62,78,96,4.38,overcast clouds
666,Warwick,US,41.7001,-71.4162,45.45,52,20,8.05,few clouds
667,Kohima,IN,25.6667,94.1167,63.84,72,9,1.86,clear sky
668,Sioux Lookout,CA,50.1001,-91.917,24.87,86,100,6.91,mist
669,Vilyuysk,RU,63.7553,121.6247,30.4,97,100,11.77,snow
670,Narni,IT,42.5171,12.5231,45.41,57,0,6.29,clear sky
671,Kibre Mengist,ET,5.8833,38.9833,58.96,99,100,1.63,moderate rain
672,Inta,RU,66.0317,60.1659,27.77,94,100,15.46,overcast clouds
673,Juneau,US,58.3019,-134.4197,46.4,52,75,6.91,broken clouds
674,Mackay,AU,-21.15,149.2,79.68,73,40,17.27,scattered clouds
675,Salamiyah,SY,35.0113,37.0532,71.51,15,96,25.61,overcast clouds
676,Road Town,VG,18.4167,-64.6167,78.89,83,40,14.97,scattered clouds
677,Zyryanka,RU,65.75,150.85,20.97,88,100,6.93,overcast clouds
678,Fort Nelson,CA,58.8053,-122.7002,20.79,45,75,3.44,broken clouds
679,Issa,RU,53.8705,44.8578,35.78,94,100,5.79,overcast clouds
680,Taganak,PH,6.0833,118.3,82.54,73,14,4.23,few clouds
681,Bontang,ID,0.1333,117.5,82.02,78,77,7.7,broken clouds
682,Maryborough,AU,-25.5333,152.7,77.11,48,41,7.09,scattered clouds
683,Sistranda,NO,63.7256,8.834,46.36,80,89,5.93,overcast clouds
684,Hovd,MN,48.0056,91.6419,45.7,21,1,6.49,clear sky
